{"type":"FeatureCollection","features":[
  {"type":"Feature","properties":{"id":"3550","name":"George Bush Intercontinental Houston Airport","city":"Houston","country":"United States","faa":"IAH","icao":"KIAH","alt":"97","tz-offset":"-6","dst":"A","tz":"America/Chicago"},"geometry":{"type":"Point","coordinates":[-95.34140014648438,29.984399795532227]}}
  ,
  {"type":"Feature","properties":{"id":"3566","name":"William P Hobby Airport","city":"Houston","country":"United States","faa":"HOU","icao":"KHOU","alt":"46","tz-offset":"-6","dst":"A","tz":"America/Chicago"},"geometry":{"type":"Point","coordinates":[-95.27890015,29.64539909]}}
  ,
  {"type":"Feature","properties":{"id":"3484","name":"Los Angeles International Airport","city":"Los Angeles","country":"United States","faa":"LAX","icao":"KLAX","alt":"125","tz-offset":"-8","dst":"A","tz":"America/Los_Angeles"},"geometry":{"type":"Point","coordinates":[-118.4079971,33.94250107]}}
  ,
  {"type":"Feature","properties":{"id":"3697","name":"La Guardia Airport","city":"New York","country":"United States","faa":"LGA","icao":"KLGA","alt":"21","tz-offset":"-5","dst":"A","tz":"America/New_York"},"geometry":{"type":"Point","coordinates":[-73.87259674,40.77719879]}}
  ,
  {"type":"Feature","properties":{"id":"3797","name":"John F Kennedy International Airport","city":"New York","country":"United States","faa":"JFK","icao":"KJFK","alt":"13","tz-offset":"-5","dst":"A","tz":"America/New_York"},"geometry":{"type":"Point","coordinates":[-73.77890015,40.63980103]}}
  ,
  {"type":"Feature","properties":{"id":"3747","name":"Chicago Midway International Airport","city":"Chicago","country":"United States","faa":"MDW","icao":"KMDW","alt":"620","tz-offset":"-6","dst":"A","tz":"America/Chicago"},"geometry":{"type":"Point","coordinates":[-87.752403,41.785999]}}
  ,
  {"type":"Feature","properties":{"id":"3830","name":"Chicago O'Hare International Airport","city":"Chicago","country":"United States","faa":"ORD","icao":"KORD","alt":"672","tz-offset":"-6","dst":"A","tz":"America/Chicago"},"geometry":{"type":"Point","coordinates":[-87.9048,41.9786]}}
  ,
  {"type":"Feature","properties":{"id":"3577","name":"Seattle Tacoma International Airport","city":"Seattle","country":"United States","faa":"SEA","icao":"KSEA","alt":"433","tz-offset":"-8","dst":"A","tz":"America/Los_Angeles"},"geometry":{"type":"Point","coordinates":[-122.308998,47.449001]}}
  ,
  {"type":"Feature","properties":{"id":"3731","name":"San Diego International Airport","city":"San Diego","country":"United States","faa":"SAN","icao":"KSAN","alt":"17","tz-offset":"-8","dst":"A","tz":"America/Los_Angeles"},"geometry":{"type":"Point","coordinates":[-117.190002441,32.7336006165]}}
  ,
  {"type":"Feature","properties":{"id":"3473","name":"Memphis International Airport","city":"Memphis","country":"United States","faa":"MEM","icao":"KMEM","alt":"341","tz-offset":"-6","dst":"A","tz":"America/Chicago"},"geometry":{"type":"Point","coordinates":[-89.97669982910156,35.04240036010742]}}
  ,
  {"type":"Feature","properties":{"id":"3673","name":"Austin Bergstrom International Airport","city":"Austin","country":"United States","faa":"AUS","icao":"KAUS","alt":"542","tz-offset":"-6","dst":"A","tz":"America/Chicago"},"geometry":{"type":"Point","coordinates":[-97.6698989868164,30.194499969482422]}}
  ,
  {"type":"Feature","properties":{"id":"3576","name":"Miami International Airport","city":"Miami","country":"United States","faa":"MIA","icao":"KMIA","alt":"8","tz-offset":"-5","dst":"A","tz":"America/New_York"},"geometry":{"type":"Point","coordinates":[-80.29060363769531,25.79319953918457]}}
  ,
  {"type":"Feature","properties":{"id":"3682","name":"Hartsfield Jackson Atlanta International Airport","city":"Atlanta","country":"United States","faa":"ATL","icao":"KATL","alt":"1026","tz-offset":"-5","dst":"A","tz":"America/New_York"},"geometry":{"type":"Point","coordinates":[-84.428101,33.6367]}}
  ,
  {"type":"Feature","properties":{"id":"3469","name":"San Francisco International Airport","city":"San Francisco","country":"United States","faa":"SFO","icao":"KSFO","alt":"13","tz-offset":"-8","dst":"A","tz":"America/Los_Angeles"},"geometry":{"type":"Point","coordinates":[-122.375,37.61899948120117]}}
  ,
  {"type":"Feature","properties":{"id":"3502","name":"Dallas Love Field","city":"Dallas","country":"United States","faa":"DAL","icao":"KDAL","alt":"487","tz-offset":"-6","dst":"A","tz":"America/Chicago"},"geometry":{"type":"Point","coordinates":[-96.851799,32.847099]}}
  ,
  {"type":"Feature","properties":{"id":"3670","name":"Dallas Fort Worth International Airport","city":"Dallas-Fort Worth","country":"United States","faa":"DFW","icao":"KDFW","alt":"607","tz-offset":"-6","dst":"A","tz":"America/Chicago"},"geometry":{"type":"Point","coordinates":[-97.038002,32.896801]}}
  ,
  {"type":"Feature","properties":{"id":"3626","name":"Raleigh Durham International Airport","city":"Raleigh-durham","country":"United States","faa":"RDU","icao":"KRDU","alt":"435","tz-offset":"-5","dst":"A","tz":"America/New_York"},"geometry":{"type":"Point","coordinates":[-78.7874984741211,35.877601623535156]}}
  ,
  {"type":"Feature","properties":{"id":"3364","name":"Beijing Capital International Airport","city":"Beijing","country":"China","faa":"PEK","icao":"ZBAA","alt":"116","tz-offset":"8","dst":"U","tz":"Asia/Shanghai"},"geometry":{"type":"Point","coordinates":[116.58499908447266,40.080101013183594]}}
  ,
  {"type":"Feature","properties":{"id":"2188","name":"Dubai International Airport","city":"Dubai","country":"United Arab Emirates","faa":"DXB","icao":"OMDB","alt":"62","tz-offset":"4","dst":"U","tz":"Asia/Dubai"},"geometry":{"type":"Point","coordinates":[55.3643989563,25.2527999878]}}
  ,
  {"type":"Feature","properties":{"id":"507","name":"London Heathrow Airport","city":"London","country":"United Kingdom","faa":"LHR","icao":"EGLL","alt":"83","tz-offset":"0","dst":"E","tz":"Europe/London"},"geometry":{"type":"Point","coordinates":[-0.461941,51.4706]}}
  ,
  {"type":"Feature","properties":{"id":"3077","name":"Hong Kong International Airport","city":"Hong Kong","country":"Hong Kong","faa":"HKG","icao":"VHHH","alt":"28","tz-offset":"8","dst":"U","tz":"Asia/Hong_Kong"},"geometry":{"type":"Point","coordinates":[113.915001,22.308901]}}
  ,
  {"type":"Feature","properties":{"id":"1382","name":"Charles de Gaulle International Airport","city":"Paris","country":"France","faa":"CDG","icao":"LFPG","alt":"392","tz-offset":"1","dst":"E","tz":"Europe/Paris"},"geometry":{"type":"Point","coordinates":[2.55,49.012798]}}
  ,
  {"type":"Feature","properties":{"id":"340","name":"Frankfurt am Main Airport","city":"Frankfurt","country":"Germany","faa":"FRA","icao":"EDDF","alt":"364","tz-offset":"1","dst":"E","tz":"Europe/Berlin"},"geometry":{"type":"Point","coordinates":[8.570556,50.033333]}}
  ,
  {"type":"Feature","properties":{"id":"193","name":"Lester B. Pearson International Airport","city":"Toronto","country":"Canada","faa":"YYZ","icao":"CYYZ","alt":"569","tz-offset":"-5","dst":"A","tz":"America/Toronto"},"geometry":{"type":"Point","coordinates":[-79.63059997559999,43.6772003174]}}
  ,
  {"type":"Feature","properties":{"id":"346","name":"Munich Airport","city":"Munich","country":"Germany","faa":"MUC","icao":"EDDM","alt":"1487","tz-offset":"1","dst":"E","tz":"Europe/Berlin"},"geometry":{"type":"Point","coordinates":[11.7861,48.353802]}}
  ,
  {"type":"Feature","properties":{"id":"3361","name":"Sydney Kingsford Smith International Airport","city":"Sydney","country":"Australia","faa":"SYD","icao":"YSSY","alt":"21","tz-offset":"10","dst":"O","tz":"Australia/Sydney"},"geometry":{"type":"Point","coordinates":[151.177001953125,-33.94609832763672]}}
  ,
  {"type":"Feature","properties":{"id":"502","name":"London Gatwick Airport","city":"London","country":"United Kingdom","faa":"LGW","icao":"EGKK","alt":"202","tz-offset":"0","dst":"E","tz":"Europe/London"},"geometry":{"type":"Point","coordinates":[-0.190278,51.148102]}}
  ,
  {"type":"Feature","properties":{"id":"2279","name":"Narita International Airport","city":"Tokyo","country":"Japan","faa":"NRT","icao":"RJAA","alt":"141","tz-offset":"9","dst":"U","tz":"Asia/Tokyo"},"geometry":{"type":"Point","coordinates":[140.386001587,35.7647018433]}}
  ,
  {"type":"Feature","properties":{"id":"3391","name":"Shanghai Hongqiao International Airport","city":"Shanghai","country":"China","faa":"SHA","icao":"ZSSS","alt":"10","tz-offset":"8","dst":"U","tz":"Asia/Shanghai"},"geometry":{"type":"Point","coordinates":[121.33599853515625,31.197900772094727]}}
  ,
  {"type":"Feature","properties":{"id":"2276","name":"Taiwan Taoyuan International Airport","city":"Taipei","country":"Taiwan","faa":"TPE","icao":"RCTP","alt":"106","tz-offset":"8","dst":"U","tz":"Asia/Taipei"},"geometry":{"type":"Point","coordinates":[121.233002,25.0777]}}
  ,
  {"type":"Feature","properties":{"id":"3858","name":"Minneapolis-St Paul International/Wold-Chamberlain Airport","city":"Minneapolis","country":"United States","faa":"MSP","icao":"KMSP","alt":"841","tz-offset":"-6","dst":"A","tz":"America/Chicago"},"geometry":{"type":"Point","coordinates":[-93.221802,44.882]}}
  ,
  {"type":"Feature","properties":{"id":"1824","name":"Licenciado Benito Juarez International Airport","city":"Mexico City","country":"Mexico","faa":"MEX","icao":"MMMX","alt":"7316","tz-offset":"-6","dst":"S","tz":"America/Mexico_City"},"geometry":{"type":"Point","coordinates":[-99.072098,19.4363]}}
  ,
  {"type":"Feature","properties":{"id":"13696","name":"Istanbul Airport","city":"Istanbul","country":"Turkey","faa":"IST","icao":"LTFM","alt":"325","tz-offset":"3","dst":"E","tz":"\\N"},"geometry":{"type":"Point","coordinates":[28.751944,41.275278]}}
  ,
  {"type":"Feature","properties":{"id":"580","name":"Amsterdam Airport Schiphol","city":"Amsterdam","country":"Netherlands","faa":"AMS","icao":"EHAM","alt":"-11","tz-offset":"1","dst":"E","tz":"Europe/Amsterdam"},"geometry":{"type":"Point","coordinates":[4.76389,52.308601]}}
  ,
  {"type":"Feature","properties":{"id":"3316","name":"Singapore Changi Airport","city":"Singapore","country":"Singapore","faa":"SIN","icao":"WSSS","alt":"22","tz-offset":"8","dst":"N","tz":"Asia/Singapore"},"geometry":{"type":"Point","coordinates":[103.994003,1.35019]}}

]}
